[
  {
    "id": "nyc-2026",
    "name": "TCS New York City Marathon",
    "city": "New York",
    "country": "USA",
    "lat": 40.748817,
    "lng": -73.985428,
    "date": "2026-11-01",
    "distance": "Marathon",
    "km": 42.195,
    "cause": "elite",
    "image": "https://images.unsplash.com/photo-1496442226666-8d4d0e62e6e9?w=1200&q=85&auto=format&fit=crop",
    "url": "https://www.nyrr.org/tcsnycmarathon"
  },
  {
    "id": "chicago-2026",
    "name": "Bank of America Chicago Marathon",
    "city": "Chicago",
    "country": "USA",
    "lat": 41.8781,
    "lng": -87.6298,
    "date": "2026-10-11",
    "distance": "Marathon",
    "km": 42.195,
    "cause": "elite",
    "image": "https://images.unsplash.com/photo-1494522358652-f30e61a503f5?w=1200&q=85&auto=format&fit=crop",
    "url": "https://www.chicagomarathon.com"
  },
  {
    "id": "boston-2026",
    "name": "Boston Marathon",
    "city": "Boston",
    "country": "USA",
    "lat": 42.3601,
    "lng": -71.0589,
    "date": "2026-04-20",
    "distance": "Marathon",
    "km": 42.195,
    "cause": "elite",
    "image": "https://images.unsplash.com/photo-1617704548623-29cf2a1a0d44?w=1200&q=85&auto=format&fit=crop",
    "url": "https://www.baa.org/races/boston-marathon"
  },
  {
    "id": "la-2026",
    "name": "Los Angeles Marathon",
    "city": "Los Angeles",
    "country": "USA",
    "lat": 34.0522,
    "lng": -118.2437,
    "date": "2026-03-08",
    "distance": "Marathon",
    "km": 42.195,
    "cause": "community",
    "image": "https://images.unsplash.com/photo-1534190235440-6ba2f7d7d3e0?w=1200&q=85&auto=format&fit=crop",
    "url": "https://lamarathon.com"
  },
  {
    "id": "sf-2026",
    "name": "San Francisco Marathon",
    "city": "San Francisco",
    "country": "USA",
    "lat": 37.7749,
    "lng": -122.4194,
    "date": "2026-07-26",
    "distance": "Marathon",
    "km": 42.195,
    "cause": "wellness",
    "image": "https://images.unsplash.com/photo-1501594907352-04cda38ebc29?w=1200&q=85&auto=format&fit=crop",
    "url": "https://www.thesfmarathon.com"
  },
  {
    "id": "austin-2026",
    "name": "Austin Marathon",
    "city": "Austin",
    "country": "USA",
    "lat": 30.2672,
    "lng": -97.7431,
    "date": "2026-02-15",
    "distance": "Marathon",
    "km": 42.195,
    "cause": "community",
    "image": "https://images.unsplash.com/photo-1519904981063-b0cf448d479e?w=1200&q=85&auto=format&fit=crop",
    "url": "https://youraustinmarathon.com"
  },
  {
    "id": "miami-2026",
    "name": "Life Time Miami Marathon",
    "city": "Miami",
    "country": "USA",
    "lat": 25.7617,
    "lng": -80.1918,
    "date": "2026-02-01",
    "distance": "Marathon",
    "km": 42.195,
    "cause": "wellness",
    "image": "https://images.unsplash.com/photo-1514214246283-dfba2c2d4ac4?w=1200&q=85&auto=format&fit=crop",
    "url": "https://www.themiamimarathon.com"
  },
  {
    "id": "seattle-2026",
    "name": "Seattle Marathon",
    "city": "Seattle",
    "country": "USA",
    "lat": 47.6062,
    "lng": -122.3321,
    "date": "2026-11-29",
    "distance": "Marathon",
    "km": 42.195,
    "cause": "community",
    "image": "https://images.unsplash.com/photo-1502175353170-735c8d7cb8d1?w=1200&q=85&auto=format&fit=crop",
    "url": "https://www.seattlemarathon.org"
  },
  {
    "id": "denver-2026",
    "name": "Denver Colfax Marathon",
    "city": "Denver",
    "country": "USA",
    "lat": 39.7392,
    "lng": -104.9903,
    "date": "2026-05-17",
    "distance": "Marathon",
    "km": 42.195,
    "cause": "charity",
    "image": "https://images.unsplash.com/photo-1558618666-fcd25c85cd64?w=1200&q=85&auto=format&fit=crop",
    "url": "https://www.runcolfax.org"
  },
  {
    "id": "dc-2026",
    "name": "Credit Union Cherry Blossom Run",
    "city": "Washington",
    "country": "USA",
    "lat": 38.9072,
    "lng": -77.0369,
    "date": "2026-04-12",
    "distance": "10 mi",
    "km": 16.09,
    "cause": "charity",
    "image": "https://images.unsplash.com/photo-1519677102883-8e588c380b2b?w=1200&q=85&auto=format&fit=crop",
    "url": "https://www.cherryblossom.org"
  },
  {
    "id": "london-2026",
    "name": "TCS London Marathon",
    "city": "London",
    "country": "UK",
    "lat": 51.5074,
    "lng": -0.1278,
    "date": "2026-04-26",
    "distance": "Marathon",
    "km": 42.195,
    "cause": "charity",
    "image": "https://images.unsplash.com/photo-1513635269976-596b1447fa0e?w=1200&q=85&auto=format&fit=crop",
    "url": "https://www.tcslondonmarathon.com"
  },
  {
    "id": "berlin-2026",
    "name": "BMW Berlin Marathon",
    "city": "Berlin",
    "country": "Germany",
    "lat": 52.52,
    "lng": 13.405,
    "date": "2026-09-27",
    "distance": "Marathon",
    "km": 42.195,
    "cause": "elite",
    "image": "https://images.unsplash.com/photo-1528728329052-2972f58dcb8e?w=1200&q=85&auto=format&fit=crop",
    "url": "https://www.bmw-berlin-marathon.com"
  },
  {
    "id": "tokyo-2026",
    "name": "Tokyo Marathon",
    "city": "Tokyo",
    "country": "Japan",
    "lat": 35.6762,
    "lng": 139.6503,
    "date": "2026-03-01",
    "distance": "Marathon",
    "km": 42.195,
    "cause": "elite",
    "image": "https://images.unsplash.com/photo-1540959733332-eab4deabeeaf?w=1200&q=85&auto=format&fit=crop",
    "url": "https://www.marathon.tokyo"
  },
  {
    "id": "paris-2026",
    "name": "Schneider Electric Paris Marathon",
    "city": "Paris",
    "country": "France",
    "lat": 48.8566,
    "lng": 2.3522,
    "date": "2026-04-05",
    "distance": "Marathon",
    "km": 42.195,
    "cause": "community",
    "image": "https://images.unsplash.com/photo-1502602898657-3e91760cbb34?w=1200&q=85&auto=format&fit=crop",
    "url": "https://www.parismarathon.com"
  },
  {
    "id": "sydney-2026",
    "name": "Sydney Marathon",
    "city": "Sydney",
    "country": "Australia",
    "lat": -33.8688,
    "lng": 151.2093,
    "date": "2026-09-20",
    "distance": "Marathon",
    "km": 42.195,
    "cause": "wellness",
    "image": "https://images.unsplash.com/photo-1506905925346-21bda4d32df4?w=1200&q=85&auto=format&fit=crop",
    "url": "https://sydney.com.au"
  },
  {
    "id": "toronto-2026",
    "name": "TCS Toronto Waterfront Marathon",
    "city": "Toronto",
    "country": "Canada",
    "lat": 43.6532,
    "lng": -79.3832,
    "date": "2026-10-18",
    "distance": "Marathon",
    "km": 42.195,
    "cause": "community",
    "image": "https://images.unsplash.com/photo-1517935706613-90ee304e0d0e?w=1200&q=85&auto=format&fit=crop",
    "url": "https://www.torontowaterfrontmarathon.com"
  },
  {
    "id": "portland-2026",
    "name": "Portland Marathon",
    "city": "Portland",
    "country": "USA",
    "lat": 45.5152,
    "lng": -122.6784,
    "date": "2026-10-04",
    "distance": "Marathon",
    "km": 42.195,
    "cause": "wellness",
    "image": "https://images.unsplash.com/photo-1547036969-23d11aaca287?w=1200&q=85&auto=format&fit=crop",
    "url": "https://www.portlandmarathon.com"
  },
  {
    "id": "nashville-2026",
    "name": "St. Jude Rock 'n' Roll Nashville",
    "city": "Nashville",
    "country": "USA",
    "lat": 36.1627,
    "lng": -86.7816,
    "date": "2026-04-25",
    "distance": "Half",
    "km": 21.0975,
    "cause": "charity",
    "image": "https://images.unsplash.com/photo-1549317661-bd32c8ce0db2?w=1200&q=85&auto=format&fit=crop",
    "url": "https://www.runrocknroll.com/nashville"
  },
  {
    "id": "atlanta-2026",
    "name": "Publix Atlanta Marathon",
    "city": "Atlanta",
    "country": "USA",
    "lat": 33.749,
    "lng": -84.388,
    "date": "2026-03-01",
    "distance": "Marathon",
    "km": 42.195,
    "cause": "charity",
    "image": "https://images.unsplash.com/photo-1577224682167-45f4e30d5862?w=1200&q=85&auto=format&fit=crop",
    "url": "https://www.atlantamarathon.org"
  },
  {
    "id": "honolulu-2026",
    "name": "Honolulu Marathon",
    "city": "Honolulu",
    "country": "USA",
    "lat": 21.3069,
    "lng": -157.8583,
    "date": "2026-12-13",
    "distance": "Marathon",
    "km": 42.195,
    "cause": "wellness",
    "image": "https://images.unsplash.com/photo-1506929562872-bb421503ef21?w=1200&q=85&auto=format&fit=crop",
    "url": "https://www.honolulumarathon.org"
  }
]
