[
  {
    "id": "nyc-2026",
    "name": "TCS New York City Marathon",
    "city": "New York",
    "country": "USA",
    "lat": 40.748817,
    "lng": -73.985428,
    "date": "2026-11-01",
    "distance": "Marathon",
    "km": 42.195,
    "cause": "elite",
    "image": "https://images.unsplash.com/photo-1496442226666-8d4d0e62e6e9?w=1200&q=85&auto=format&fit=crop",
    "url": "https://www.nyrr.org/tcsnycmarathon"
  },
  {
    "id": "sf-2026",
    "name": "San Francisco Marathon",
    "city": "San Francisco",
    "country": "USA",
    "lat": 37.7749,
    "lng": -122.4194,
    "date": "2026-07-26",
    "distance": "Marathon",
    "km": 42.195,
    "cause": "wellness",
    "image": "https://images.unsplash.com/photo-1501594907352-04cda38ebc29?w=1200&q=85&auto=format&fit=crop",
    "url": "https://www.thesfmarathon.com"
  },
  {
    "id": "austin-2026",
    "name": "Austin Marathon",
    "city": "Austin",
    "country": "USA",
    "lat": 30.2672,
    "lng": -97.7431,
    "date": "2026-02-15",
    "distance": "Marathon",
    "km": 42.195,
    "cause": "community",
    "image": "https://images.unsplash.com/photo-1519904981063-b0cf448d479e?w=1200&q=85&auto=format&fit=crop",
    "url": "https://youraustinmarathon.com"
  },
  {
    "id": "denver-2026",
    "name": "Denver Colfax Marathon",
    "city": "Denver",
    "country": "USA",
    "lat": 39.7392,
    "lng": -104.9903,
    "date": "2026-05-17",
    "distance": "Marathon",
    "km": 42.195,
    "cause": "charity",
    "image": "https://images.unsplash.com/photo-1558618666-fcd25c85cd64?w=1200&q=85&auto=format&fit=crop",
    "url": "https://www.runcolfax.org"
  },
  {
    "id": "tokyo-2026",
    "name": "Tokyo Marathon",
    "city": "Tokyo",
    "country": "Japan",
    "lat": 35.6762,
    "lng": 139.6503,
    "date": "2026-03-01",
    "distance": "Marathon",
    "km": 42.195,
    "cause": "elite",
    "image": "https://images.unsplash.com/photo-1540959733332-eab4deabeeaf?w=1200&q=85&auto=format&fit=crop",
    "url": "https://www.marathon.tokyo"
  },
  {
    "id": "paris-2026",
    "name": "Schneider Electric Paris Marathon",
    "city": "Paris",
    "country": "France",
    "lat": 48.8566,
    "lng": 2.3522,
    "date": "2026-04-05",
    "distance": "Marathon",
    "km": 42.195,
    "cause": "community",
    "image": "https://images.unsplash.com/photo-1502602898657-3e91760cbb34?w=1200&q=85&auto=format&fit=crop",
    "url": "https://www.parismarathon.com"
  },
  {
    "id": "sydney-2026",
    "name": "Sydney Marathon",
    "city": "Sydney",
    "country": "Australia",
    "lat": -33.8688,
    "lng": 151.2093,
    "date": "2026-09-20",
    "distance": "Marathon",
    "km": 42.195,
    "cause": "wellness",
    "image": "https://images.unsplash.com/photo-1506905925346-21bda4d32df4?w=1200&q=85&auto=format&fit=crop",
    "url": "https://sydney.com.au"
  },
  {
    "id": "nashville-2026",
    "name": "St. Jude Rock 'n' Roll Nashville",
    "city": "Nashville",
    "country": "USA",
    "lat": 36.1627,
    "lng": -86.7816,
    "date": "2026-04-25",
    "distance": "Half",
    "km": 21.0975,
    "cause": "charity",
    "image": "https://images.unsplash.com/photo-1549317661-bd32c8ce0db2?w=1200&q=85&auto=format&fit=crop",
    "url": "https://www.runrocknroll.com/nashville"
  },
  {
    "id": "honolulu-2026",
    "name": "Honolulu Marathon",
    "city": "Honolulu",
    "country": "USA",
    "lat": 21.3069,
    "lng": -157.8583,
    "date": "2026-12-13",
    "distance": "Marathon",
    "km": 42.195,
    "cause": "wellness",
    "image": "https://images.unsplash.com/photo-1506929562872-bb421503ef21?w=1200&q=85&auto=format&fit=crop",
    "url": "https://www.honolulumarathon.org"
  }
]
